[
  {
    "country": "TUR",
    "city": "istanbul",
    "lat": 40.949426,
    "lon": 29.340304,
    "average_delay": 2.3187
  },
  {
    "country": "PHL",
    "city": "manila",
    "lat": 14.602082,
    "lon": 120.976027,
    "average_delay": 2.1108
  },
  {
    "country": "TWN",
    "city": "kaohsiung",
    "lat": null,
    "lon": null,
    "average_delay": 2.0497
  },
  {
    "country": "ROU",
    "city": "bucharest",
    "lat": null,
    "lon": null,
    "average_delay": 1.9187
  },
  {
    "country": "TWN",
    "city": "taipei",
    "lat": null,
    "lon": null,
    "average_delay": 1.8141
  },
  {
    "country": "ESP",
    "city": "valencia",
    "lat": 39.467057,
    "lon": -0.382071,
    "average_delay": 1.7701
  },
  {
    "country": "GRC",
    "city": "athens",
    "lat": null,
    "lon": null,
    "average_delay": 1.747
  },
  {
    "country": "TWN",
    "city": "taichung",
    "lat": null,
    "lon": null,
    "average_delay": 1.7217
  },
  {
    "country": "IND",
    "city": "bangalore",
    "lat": 12.972772,
    "lon": 77.724139,
    "average_delay": 1.6264
  },
  {
    "country": "MEX",
    "city": "mexico-city",
    "lat": 19.434235,
    "lon": -99.073312,
    "average_delay": 1.5467
  },
  {
    "country": "IND",
    "city": "mumbai",
    "lat": 39.615935,
    "lon": -86.084806,
    "average_delay": 1.4694
  },
  {
    "country": "BEL",
    "city": "brussels",
    "lat": 50.866268,
    "lon": 4.349083,
    "average_delay": 1.4349
  },
  {
    "country": "GBR",
    "city": "leicester",
    "lat": null,
    "lon": null,
    "average_delay": 1.3891
  },
  {
    "country": "POL",
    "city": "lodz",
    "lat": 51.779674,
    "lon": 19.422278,
    "average_delay": 1.3471
  },
  {
    "country": "LTU",
    "city": "vilnius",
    "lat": null,
    "lon": null,
    "average_delay": 1.3445
  },
  {
    "country": "BGR",
    "city": "sofia",
    "lat": null,
    "lon": null,
    "average_delay": 1.3421
  },
  {
    "country": "GBR",
    "city": "manchester",
    "lat": null,
    "lon": null,
    "average_delay": 1.3031
  },
  {
    "country": "IRL",
    "city": "dublin",
    "lat": 53.403601,
    "lon": -6.217244,
    "average_delay": 1.2778
  },
  {
    "country": "TUR",
    "city": "antalya",
    "lat": 36.89972,
    "lon": 30.762541,
    "average_delay": 1.2774
  },
  {
    "country": "PER",
    "city": "lima",
    "lat": -7.900719,
    "lon": -34.898389,
    "average_delay": 1.2758
  },
  {
    "country": "ITA",
    "city": "rome",
    "lat": 41.795659,
    "lon": 12.255523,
    "average_delay": 1.2494
  },
  {
    "country": "IRL",
    "city": "limerick",
    "lat": null,
    "lon": null,
    "average_delay": 1.248
  },
  {
    "country": "AUT",
    "city": "vienna",
    "lat": null,
    "lon": null,
    "average_delay": 1.243
  },
  {
    "country": "GBR",
    "city": "liverpool",
    "lat": null,
    "lon": null,
    "average_delay": 1.221
  },
  {
    "country": "TUR",
    "city": "izmir",
    "lat": 38.431139,
    "lon": 27.136332,
    "average_delay": 1.2173
  },
  {
    "country": "GBR",
    "city": "reading",
    "lat": null,
    "lon": null,
    "average_delay": 1.2134
  },
  {
    "country": "USA",
    "city": "new-york",
    "lat": 40.712728,
    "lon": -74.006015,
    "average_delay": 1.2084
  },
  {
    "country": "ARE",
    "city": "sharja",
    "lat": null,
    "lon": null,
    "average_delay": 1.1984
  },
  {
    "country": "GBR",
    "city": "london",
    "lat": null,
    "lon": null,
    "average_delay": 1.1896
  },
  {
    "country": "POL",
    "city": "krakow",
    "lat": 50.090995,
    "lon": 19.843441,
    "average_delay": 1.1877
  },
  {
    "country": "TWN",
    "city": "tainan",
    "lat": null,
    "lon": null,
    "average_delay": 1.1877
  },
  {
    "country": "GBR",
    "city": "nottingham",
    "lat": null,
    "lon": null,
    "average_delay": 1.1742
  },
  {
    "country": "COL",
    "city": "bogota",
    "lat": -25.989275,
    "lon": -54.582881,
    "average_delay": 1.1658
  },
  {
    "country": "POL",
    "city": "wroclaw",
    "lat": 51.135613,
    "lon": 17.081223,
    "average_delay": 1.1506
  },
  {
    "country": "CHE",
    "city": "geneva",
    "lat": 46.210144,
    "lon": 6.14724,
    "average_delay": 1.1484
  },
  {
    "country": "GBR",
    "city": "edinburgh",
    "lat": null,
    "lon": null,
    "average_delay": 1.1361
  },
  {
    "country": "IDN",
    "city": "jakarta",
    "lat": -6.197328,
    "lon": 106.796003,
    "average_delay": 1.1021
  },
  {
    "country": "IRL",
    "city": "cork",
    "lat": null,
    "lon": null,
    "average_delay": 1.1012
  },
  {
    "country": "TWN",
    "city": "taoyuan",
    "lat": null,
    "lon": null,
    "average_delay": 1.09
  },
  {
    "country": "GRC",
    "city": "thessaloniki",
    "lat": null,
    "lon": null,
    "average_delay": 1.0886
  },
  {
    "country": "TUR",
    "city": "adana",
    "lat": 36.989889,
    "lon": 35.332348,
    "average_delay": 1.0796
  },
  {
    "country": "PRT",
    "city": "lisbon",
    "lat": null,
    "lon": null,
    "average_delay": 1.0761
  },
  {
    "country": "GBR",
    "city": "leeds-bradford",
    "lat": null,
    "lon": null,
    "average_delay": 1.0744
  },
  {
    "country": "CAN",
    "city": "london",
    "lat": -43.52073,
    "lon": 172.653738,
    "average_delay": 1.0708
  },
  {
    "country": "TUR",
    "city": "mersin",
    "lat": 36.916609,
    "lon": 31.073178,
    "average_delay": 1.0561
  },
  {
    "country": "ITA",
    "city": "bologna",
    "lat": null,
    "lon": null,
    "average_delay": 1.0427
  },
  {
    "country": "FRA",
    "city": "paris",
    "lat": 48.876812,
    "lon": 2.336238,
    "average_delay": 1.0408
  },
  {
    "country": "GBR",
    "city": "southampton",
    "lat": null,
    "lon": null,
    "average_delay": 1.0273
  },
  {
    "country": "ITA",
    "city": "palermo",
    "lat": 51.064797,
    "lon": 4.027786,
    "average_delay": 1.026
  },
  {
    "country": "ITA",
    "city": "genoa",
    "lat": null,
    "lon": null,
    "average_delay": 1.0236
  },
  {
    "country": "ITA",
    "city": "trieste",
    "lat": null,
    "lon": null,
    "average_delay": 1.0209
  },
  {
    "country": "GBR",
    "city": "birmingham",
    "lat": null,
    "lon": null,
    "average_delay": 1.0198
  },
  {
    "country": "POL",
    "city": "warsaw",
    "lat": 52.30435,
    "lon": 21.019659,
    "average_delay": 1.0152
  },
  {
    "country": "GBR",
    "city": "hull",
    "lat": null,
    "lon": null,
    "average_delay": 1.011
  },
  {
    "country": "CAN",
    "city": "vancouver",
    "lat": -43.585098,
    "lon": 170.141788,
    "average_delay": 1.008
  },
  {
    "country": "CZE",
    "city": "prague",
    "lat": 50.045025,
    "lon": 14.280864,
    "average_delay": 1.0071
  },
  {
    "country": "CAN",
    "city": "winnipeg",
    "lat": -43.521587,
    "lon": 172.690931,
    "average_delay": 1.0053
  },
  {
    "country": "ITA",
    "city": "reggio-calabria",
    "lat": null,
    "lon": null,
    "average_delay": 1.004
  },
  {
    "country": "DEU",
    "city": "berlin",
    "lat": null,
    "lon": null,
    "average_delay": 0.9966
  },
  {
    "country": "CAN",
    "city": "toronto",
    "lat": 5.303512,
    "lon": -3.978654,
    "average_delay": 0.9866
  },
  {
    "country": "LUX",
    "city": "luxembourg",
    "lat": 49.626391,
    "lon": 6.209445,
    "average_delay": 0.9789
  },
  {
    "country": "ESP",
    "city": "barcelona",
    "lat": null,
    "lon": null,
    "average_delay": 0.9749
  },
  {
    "country": "ESP",
    "city": "seville",
    "lat": null,
    "lon": null,
    "average_delay": 0.9688
  },
  {
    "country": "BEL",
    "city": "antwerp",
    "lat": 51.162803,
    "lon": 5.063695,
    "average_delay": 0.9669
  },
  {
    "country": "DEU",
    "city": "kassel",
    "lat": null,
    "lon": null,
    "average_delay": 0.9387
  },
  {
    "country": "HUN",
    "city": "budapest",
    "lat": 47.450687,
    "lon": 19.091052,
    "average_delay": 0.9364
  },
  {
    "country": "ESP",
    "city": "granada",
    "lat": 4.519955,
    "lon": -74.350464,
    "average_delay": 0.9335
  },
  {
    "country": "DEU",
    "city": "wiesbaden",
    "lat": null,
    "lon": null,
    "average_delay": 0.9328
  },
  {
    "country": "SAU",
    "city": "riyadh",
    "lat": 24.148691,
    "lon": 47.27189,
    "average_delay": 0.9327
  },
  {
    "country": "USA",
    "city": "miami",
    "lat": 25.774173,
    "lon": -80.19362,
    "average_delay": 0.9221
  },
  {
    "country": "POL",
    "city": "poznan",
    "lat": 52.40855,
    "lon": 17.029489,
    "average_delay": 0.9103
  },
  {
    "country": "CAN",
    "city": "ottawa",
    "lat": -43.519651,
    "lon": 172.690154,
    "average_delay": 0.9023
  },
  {
    "country": "CAN",
    "city": "halifax",
    "lat": -43.496432,
    "lon": 172.581796,
    "average_delay": 0.9
  },
  {
    "country": "USA",
    "city": "tampa",
    "lat": 27.94776,
    "lon": -82.458444,
    "average_delay": 0.8976
  },
  {
    "country": "TUR",
    "city": "ankara",
    "lat": 39.890909,
    "lon": 32.855941,
    "average_delay": 0.8948
  },
  {
    "country": "ITA",
    "city": "catania",
    "lat": 37.470125,
    "lon": 15.066748,
    "average_delay": 0.8887
  },
  {
    "country": "GBR",
    "city": "coventry",
    "lat": null,
    "lon": null,
    "average_delay": 0.8879
  },
  {
    "country": "AUS",
    "city": "melbourne",
    "lat": -37.736058,
    "lon": 145.048626,
    "average_delay": 0.881
  },
  {
    "country": "DEU",
    "city": "hamburg",
    "lat": 53.591729,
    "lon": 9.928567,
    "average_delay": 0.8747
  },
  {
    "country": "GBR",
    "city": "stoke-on-trent",
    "lat": null,
    "lon": null,
    "average_delay": 0.8735
  },
  {
    "country": "DEU",
    "city": "dresden",
    "lat": null,
    "lon": null,
    "average_delay": 0.8728
  },
  {
    "country": "ITA",
    "city": "florence",
    "lat": 55.798868,
    "lon": -4.293801,
    "average_delay": 0.8651
  },
  {
    "country": "DEU",
    "city": "frankfurt-am-main",
    "lat": null,
    "lon": null,
    "average_delay": 0.863
  },
  {
    "country": "FRA",
    "city": "lyon",
    "lat": 39.957888,
    "lon": -82.817075,
    "average_delay": 0.854
  },
  {
    "country": "GBR",
    "city": "glasgow",
    "lat": null,
    "lon": null,
    "average_delay": 0.8478
  },
  {
    "country": "ESP",
    "city": "santa-cruz-de-tenerife",
    "lat": null,
    "lon": null,
    "average_delay": 0.8447
  },
  {
    "country": "BRA",
    "city": "sao-paulo",
    "lat": -23.529779,
    "lon": -46.395668,
    "average_delay": 0.8442
  },
  {
    "country": "DEU",
    "city": "stuttgart",
    "lat": null,
    "lon": null,
    "average_delay": 0.8415
  },
  {
    "country": "AUS",
    "city": "sydney",
    "lat": -33.831562,
    "lon": 151.226874,
    "average_delay": 0.8368
  },
  {
    "country": "ITA",
    "city": "naples",
    "lat": -33.801803,
    "lon": 25.378251,
    "average_delay": 0.8313
  },
  {
    "country": "FRA",
    "city": "clermont-ferrand",
    "lat": null,
    "lon": null,
    "average_delay": 0.8296
  },
  {
    "country": "ESP",
    "city": "valladolid",
    "lat": 20.700066,
    "lon": -88.18513,
    "average_delay": 0.8288
  },
  {
    "country": "GBR",
    "city": "bristol",
    "lat": null,
    "lon": null,
    "average_delay": 0.8272
  },
  {
    "country": "DEU",
    "city": "nuremberg",
    "lat": null,
    "lon": null,
    "average_delay": 0.8264
  },
  {
    "country": "GBR",
    "city": "brighton-and-hove",
    "lat": null,
    "lon": null,
    "average_delay": 0.8261
  },
  {
    "country": "GBR",
    "city": "preston",
    "lat": null,
    "lon": null,
    "average_delay": 0.8233
  },
  {
    "country": "GBR",
    "city": "bournemouth",
    "lat": null,
    "lon": null,
    "average_delay": 0.8191
  },
  {
    "country": "ARE",
    "city": "dubai",
    "lat": null,
    "lon": null,
    "average_delay": 0.8125
  },
  {
    "country": "CAN",
    "city": "montreal",
    "lat": 45.513904,
    "lon": -73.634399,
    "average_delay": 0.8111
  },
  {
    "country": "USA",
    "city": "washington",
    "lat": 38.895037,
    "lon": -77.036543,
    "average_delay": 0.804
  },
  {
    "country": "ITA",
    "city": "turin",
    "lat": null,
    "lon": null,
    "average_delay": 0.7985
  },
  {
    "country": "ZAF",
    "city": "durban",
    "lat": null,
    "lon": null,
    "average_delay": 0.7984
  },
  {
    "country": "GBR",
    "city": "belfast",
    "lat": null,
    "lon": null,
    "average_delay": 0.7981
  },
  {
    "country": "ESP",
    "city": "murcia",
    "lat": null,
    "lon": null,
    "average_delay": 0.7975
  },
  {
    "country": "FRA",
    "city": "brest",
    "lat": null,
    "lon": null,
    "average_delay": 0.7969
  },
  {
    "country": "DEU",
    "city": "mannheim",
    "lat": null,
    "lon": null,
    "average_delay": 0.7886
  },
  {
    "country": "ITA",
    "city": "messina",
    "lat": null,
    "lon": null,
    "average_delay": 0.7853
  },
  {
    "country": "NLD",
    "city": "haarlem",
    "lat": null,
    "lon": null,
    "average_delay": 0.7853
  },
  {
    "country": "CHE",
    "city": "lausanne",
    "lat": 46.518659,
    "lon": 6.566561,
    "average_delay": 0.7786
  },
  {
    "country": "DEU",
    "city": "aachen",
    "lat": null,
    "lon": null,
    "average_delay": 0.776
  },
  {
    "country": "GBR",
    "city": "sheffield",
    "lat": null,
    "lon": null,
    "average_delay": 0.7745
  },
  {
    "country": "TUR",
    "city": "konya",
    "lat": null,
    "lon": null,
    "average_delay": 0.7545
  },
  {
    "country": "POL",
    "city": "szczecin",
    "lat": 53.385113,
    "lon": 14.667372,
    "average_delay": 0.7518
  },
  {
    "country": "USA",
    "city": "atlanta",
    "lat": 33.754466,
    "lon": -84.389815,
    "average_delay": 0.7465
  },
  {
    "country": "DEU",
    "city": "monchengladbach",
    "lat": null,
    "lon": null,
    "average_delay": 0.7447
  },
  {
    "country": "NLD",
    "city": "arnhem",
    "lat": null,
    "lon": null,
    "average_delay": 0.7443
  },
  {
    "country": "DEU",
    "city": "freiburg",
    "lat": null,
    "lon": null,
    "average_delay": 0.7381
  },
  {
    "country": "ESP",
    "city": "a-coruna",
    "lat": 42.870885,
    "lon": -8.546305,
    "average_delay": 0.7308
  },
  {
    "country": "GBR",
    "city": "cardiff",
    "lat": null,
    "lon": null,
    "average_delay": 0.7308
  },
  {
    "country": "FRA",
    "city": "toulouse",
    "lat": null,
    "lon": null,
    "average_delay": 0.7286
  },
  {
    "country": "USA",
    "city": "seattle",
    "lat": 47.603832,
    "lon": -122.330062,
    "average_delay": 0.7281
  },
  {
    "country": "FRA",
    "city": "strasbourg",
    "lat": 40.137912,
    "lon": -83.155393,
    "average_delay": 0.7277
  },
  {
    "country": "POL",
    "city": "gdansk-gdynia-sopot",
    "lat": null,
    "lon": null,
    "average_delay": 0.722
  },
  {
    "country": "ITA",
    "city": "milan",
    "lat": 45.564299,
    "lon": 9.049424,
    "average_delay": 0.7161
  },
  {
    "country": "FRA",
    "city": "lille",
    "lat": 59.919861,
    "lon": 10.771654,
    "average_delay": 0.715
  },
  {
    "country": "GBR",
    "city": "swansea",
    "lat": null,
    "lon": null,
    "average_delay": 0.714
  },
  {
    "country": "PRT",
    "city": "funchal",
    "lat": 41.163246,
    "lon": -8.68354,
    "average_delay": 0.7126
  },
  {
    "country": "ESP",
    "city": "oviedo",
    "lat": null,
    "lon": null,
    "average_delay": 0.7077
  },
  {
    "country": "DEU",
    "city": "cologne",
    "lat": null,
    "lon": null,
    "average_delay": 0.7069
  },
  {
    "country": "TUR",
    "city": "bursa",
    "lat": null,
    "lon": null,
    "average_delay": 0.7058
  },
  {
    "country": "ITA",
    "city": "prato",
    "lat": null,
    "lon": null,
    "average_delay": 0.7016
  },
  {
    "country": "CHE",
    "city": "lugano",
    "lat": 53.383041,
    "lon": -2.165723,
    "average_delay": 0.699
  },
  {
    "country": "ESP",
    "city": "zaragoza",
    "lat": null,
    "lon": null,
    "average_delay": 0.697
  },
  {
    "country": "AUT",
    "city": "graz",
    "lat": null,
    "lon": null,
    "average_delay": 0.6946
  },
  {
    "country": "CAN",
    "city": "edmonton",
    "lat": -43.555624,
    "lon": 172.515963,
    "average_delay": 0.691
  },
  {
    "country": "FRA",
    "city": "nantes",
    "lat": null,
    "lon": null,
    "average_delay": 0.6882
  },
  {
    "country": "PRT",
    "city": "porto",
    "lat": 41.150219,
    "lon": -8.61035,
    "average_delay": 0.6842
  },
  {
    "country": "NLD",
    "city": "the-hague",
    "lat": null,
    "lon": null,
    "average_delay": 0.6686
  },
  {
    "country": "USA",
    "city": "orlando",
    "lat": 28.542111,
    "lon": -81.37903,
    "average_delay": 0.6683
  },
  {
    "country": "SVK",
    "city": "kosice",
    "lat": null,
    "lon": null,
    "average_delay": 0.6682
  },
  {
    "country": "LVA",
    "city": "riga",
    "lat": null,
    "lon": null,
    "average_delay": 0.6669
  },
  {
    "country": "FRA",
    "city": "nancy",
    "lat": 39.949665,
    "lon": -82.8625,
    "average_delay": 0.6661
  },
  {
    "country": "AUS",
    "city": "gold-coast",
    "lat": -28.075285,
    "lon": 153.363717,
    "average_delay": 0.6648
  },
  {
    "country": "USA",
    "city": "new-orleans",
    "lat": 29.955914,
    "lon": -90.073026,
    "average_delay": 0.6631
  },
  {
    "country": "CAN",
    "city": "hamilton",
    "lat": -43.554521,
    "lon": 170.329281,
    "average_delay": 0.6624
  },
  {
    "country": "DEU",
    "city": "munich",
    "lat": 41.525754,
    "lon": 2.099722,
    "average_delay": 0.6592
  },
  {
    "country": "USA",
    "city": "los-angeles",
    "lat": 34.053691,
    "lon": -118.242766,
    "average_delay": 0.6569
  },
  {
    "country": "ESP",
    "city": "madrid",
    "lat": 4.727995,
    "lon": -74.284617,
    "average_delay": 0.6565
  },
  {
    "country": "USA",
    "city": "chicago",
    "lat": 41.875562,
    "lon": -87.624421,
    "average_delay": 0.6512
  },
  {
    "country": "FRA",
    "city": "nice",
    "lat": 39.95737,
    "lon": -82.81681,
    "average_delay": 0.6475
  },
  {
    "country": "AUS",
    "city": "hobart",
    "lat": null,
    "lon": null,
    "average_delay": 0.6453
  },
  {
    "country": "DEU",
    "city": "ruhr-region-west",
    "lat": null,
    "lon": null,
    "average_delay": 0.643
  },
  {
    "country": "EST",
    "city": "tallinn",
    "lat": 59.437242,
    "lon": 24.75728,
    "average_delay": 0.6425
  },
  {
    "country": "NZL",
    "city": "christchurch",
    "lat": null,
    "lon": null,
    "average_delay": 0.6364
  },
  {
    "country": "ZAF",
    "city": "johannesburg",
    "lat": null,
    "lon": null,
    "average_delay": 0.6274
  },
  {
    "country": "CHE",
    "city": "bern",
    "lat": 20.064253,
    "lon": 103.977018,
    "average_delay": 0.6248
  },
  {
    "country": "DEU",
    "city": "leipzig",
    "lat": null,
    "lon": null,
    "average_delay": 0.6247
  },
  {
    "country": "SVN",
    "city": "ljubljana",
    "lat": null,
    "lon": null,
    "average_delay": 0.6242
  },
  {
    "country": "ESP",
    "city": "vitoria-gasteiz",
    "lat": null,
    "lon": null,
    "average_delay": 0.6228
  },
  {
    "country": "USA",
    "city": "honolulu",
    "lat": 21.304547,
    "lon": -157.855676,
    "average_delay": 0.6197
  },
  {
    "country": "SVK",
    "city": "bratislava",
    "lat": null,
    "lon": null,
    "average_delay": 0.6193
  },
  {
    "country": "USA",
    "city": "san-francisco",
    "lat": 37.779259,
    "lon": -122.419329,
    "average_delay": 0.6186
  },
  {
    "country": "DEU",
    "city": "munster",
    "lat": 51.966133,
    "lon": 7.61336,
    "average_delay": 0.6173
  },
  {
    "country": "FRA",
    "city": "rennes",
    "lat": 40.057,
    "lon": -83.122909,
    "average_delay": 0.6158
  },
  {
    "country": "FRA",
    "city": "bordeaux",
    "lat": 40.094474,
    "lon": -82.989254,
    "average_delay": 0.6152
  },
  {
    "country": "FRA",
    "city": "rouen",
    "lat": null,
    "lon": null,
    "average_delay": 0.6142
  },
  {
    "country": "NLD",
    "city": "amsterdam",
    "lat": null,
    "lon": null,
    "average_delay": 0.6134
  },
  {
    "country": "DEU",
    "city": "bielefeld",
    "lat": null,
    "lon": null,
    "average_delay": 0.613
  },
  {
    "country": "GBR",
    "city": "newcastle-sunderland",
    "lat": null,
    "lon": null,
    "average_delay": 0.6106
  },
  {
    "country": "ISL",
    "city": "reykjavik",
    "lat": null,
    "lon": null,
    "average_delay": 0.6103
  },
  {
    "country": "AUS",
    "city": "adelaide",
    "lat": null,
    "lon": null,
    "average_delay": 0.6062
  },
  {
    "country": "IND",
    "city": "new-delhi",
    "lat": 28.628582,
    "lon": 77.125763,
    "average_delay": 0.604
  },
  {
    "country": "SWE",
    "city": "stockholm",
    "lat": 59.358706,
    "lon": 17.873668,
    "average_delay": 0.6039
  },
  {
    "country": "USA",
    "city": "las-vegas",
    "lat": 36.167426,
    "lon": -115.148413,
    "average_delay": 0.5983
  },
  {
    "country": "PRT",
    "city": "braga",
    "lat": 41.154542,
    "lon": -8.612646,
    "average_delay": 0.5973
  },
  {
    "country": "NLD",
    "city": "rotterdam",
    "lat": null,
    "lon": null,
    "average_delay": 0.5957
  },
  {
    "country": "DEU",
    "city": "bonn",
    "lat": 42.934961,
    "lon": -0.366921,
    "average_delay": 0.5946
  },
  {
    "country": "CHE",
    "city": "basel",
    "lat": 35.667719,
    "lon": 139.377252,
    "average_delay": 0.5878
  },
  {
    "country": "ESP",
    "city": "gijon",
    "lat": null,
    "lon": null,
    "average_delay": 0.5872
  },
  {
    "country": "FRA",
    "city": "grenoble",
    "lat": 40.000647,
    "lon": -83.050757,
    "average_delay": 0.587
  },
  {
    "country": "DEU",
    "city": "dusseldorf",
    "lat": null,
    "lon": null,
    "average_delay": 0.5853
  },
  {
    "country": "BEL",
    "city": "leuven",
    "lat": 50.869823,
    "lon": 4.700465,
    "average_delay": 0.5801
  },
  {
    "country": "FRA",
    "city": "montpellier",
    "lat": 43.608705,
    "lon": 3.903558,
    "average_delay": 0.5796
  },
  {
    "country": "SAU",
    "city": "jeddah",
    "lat": null,
    "lon": null,
    "average_delay": 0.5791
  },
  {
    "country": "CHE",
    "city": "zurich",
    "lat": 53.48222,
    "lon": -2.242722,
    "average_delay": 0.5746
  },
  {
    "country": "CAN",
    "city": "kitchener-waterloo",
    "lat": 43.449718,
    "lon": -80.491045,
    "average_delay": 0.5733
  },
  {
    "country": "ESP",
    "city": "santander",
    "lat": 41.0086,
    "lon": -8.644899,
    "average_delay": 0.573
  },
  {
    "country": "POL",
    "city": "bydgoszcz",
    "lat": 53.127533,
    "lon": 18.024371,
    "average_delay": 0.5723
  },
  {
    "country": "NZL",
    "city": "dunedin",
    "lat": null,
    "lon": null,
    "average_delay": 0.5712
  },
  {
    "country": "AUS",
    "city": "brisbane",
    "lat": -27.434827,
    "lon": 152.988914,
    "average_delay": 0.5704
  },
  {
    "country": "ZAF",
    "city": "cape-town",
    "lat": null,
    "lon": null,
    "average_delay": 0.5694
  },
  {
    "country": "ITA",
    "city": "livorno",
    "lat": null,
    "lon": null,
    "average_delay": 0.5681
  },
  {
    "country": "USA",
    "city": "austin",
    "lat": 30.271129,
    "lon": -97.7437,
    "average_delay": 0.5662
  },
  {
    "country": "DEU",
    "city": "wuppertal",
    "lat": null,
    "lon": null,
    "average_delay": 0.5581
  },
  {
    "country": "DEU",
    "city": "ruhr-region-east",
    "lat": null,
    "lon": null,
    "average_delay": 0.5579
  },
  {
    "country": "ESP",
    "city": "malaga",
    "lat": null,
    "lon": null,
    "average_delay": 0.5567
  },
  {
    "country": "USA",
    "city": "cape-coral-fort-myers",
    "lat": 26.598315,
    "lon": -81.849809,
    "average_delay": 0.556
  },
  {
    "country": "NZL",
    "city": "wellington",
    "lat": null,
    "lon": null,
    "average_delay": 0.5529
  },
  {
    "country": "SWE",
    "city": "uppsala",
    "lat": 59.846119,
    "lon": 17.682833,
    "average_delay": 0.5461
  },
  {
    "country": "ITA",
    "city": "reggio-emilia",
    "lat": 44.602633,
    "lon": 10.773553,
    "average_delay": 0.5458
  },
  {
    "country": "USA",
    "city": "boston",
    "lat": 42.355433,
    "lon": -71.060511,
    "average_delay": 0.5457
  },
  {
    "country": "JPN",
    "city": "sapporo",
    "lat": 43.061936,
    "lon": 141.354292,
    "average_delay": 0.5397
  },
  {
    "country": "FRA",
    "city": "marseille",
    "lat": null,
    "lon": null,
    "average_delay": 0.5341
  },
  {
    "country": "ITA",
    "city": "bari",
    "lat": 58.41891,
    "lon": 15.590216,
    "average_delay": 0.5334
  },
  {
    "country": "BEL",
    "city": "liege",
    "lat": 50.489813,
    "lon": 5.22655,
    "average_delay": 0.5287
  },
  {
    "country": "USA",
    "city": "san-jose",
    "lat": 37.336166,
    "lon": -121.890591,
    "average_delay": 0.5285
  },
  {
    "country": "USA",
    "city": "charleston",
    "lat": 32.788436,
    "lon": -79.939931,
    "average_delay": 0.5273
  },
  {
    "country": "USA",
    "city": "greenville",
    "lat": 34.851354,
    "lon": -82.398488,
    "average_delay": 0.5245
  },
  {
    "country": "DEU",
    "city": "augsburg",
    "lat": 48.342891,
    "lon": 10.733548,
    "average_delay": 0.5242
  },
  {
    "country": "JPN",
    "city": "tokyo",
    "lat": 35.67686,
    "lon": 139.763895,
    "average_delay": 0.5239
  },
  {
    "country": "FRA",
    "city": "le-mans",
    "lat": 47.971648,
    "lon": 0.21509,
    "average_delay": 0.5211
  },
  {
    "country": "DNK",
    "city": "copenhagen",
    "lat": null,
    "lon": null,
    "average_delay": 0.5188
  },
  {
    "country": "FRA",
    "city": "orleans",
    "lat": 40.058645,
    "lon": -83.12886,
    "average_delay": 0.5177
  },
  {
    "country": "NZL",
    "city": "auckland",
    "lat": null,
    "lon": null,
    "average_delay": 0.5137
  },
  {
    "country": "NOR",
    "city": "oslo",
    "lat": 59.92192,
    "lon": 10.70595,
    "average_delay": 0.5131
  },
  {
    "country": "ESP",
    "city": "palma-de-mallorca",
    "lat": null,
    "lon": null,
    "average_delay": 0.5126
  },
  {
    "country": "JPN",
    "city": "osaka",
    "lat": 34.693757,
    "lon": 135.501454,
    "average_delay": 0.5126
  },
  {
    "country": "GBR",
    "city": "portsmouth",
    "lat": null,
    "lon": null,
    "average_delay": 0.5122
  },
  {
    "country": "ESP",
    "city": "las-palmas",
    "lat": 20.700066,
    "lon": -88.18513,
    "average_delay": 0.5102
  },
  {
    "country": "FRA",
    "city": "le-havre",
    "lat": null,
    "lon": null,
    "average_delay": 0.5093
  },
  {
    "country": "BEL",
    "city": "namur",
    "lat": 50.369857,
    "lon": 5.279947,
    "average_delay": 0.5073
  },
  {
    "country": "ITA",
    "city": "parma",
    "lat": 50.840649,
    "lon": 3.605727,
    "average_delay": 0.507
  },
  {
    "country": "DEU",
    "city": "hannover",
    "lat": null,
    "lon": null,
    "average_delay": 0.505
  },
  {
    "country": "CHL",
    "city": "santiago",
    "lat": -33.437776,
    "lon": -70.65045,
    "average_delay": 0.5042
  },
  {
    "country": "DNK",
    "city": "aarhus",
    "lat": null,
    "lon": null,
    "average_delay": 0.493
  },
  {
    "country": "FRA",
    "city": "reims",
    "lat": null,
    "lon": null,
    "average_delay": 0.4928
  },
  {
    "country": "ESP",
    "city": "vigo",
    "lat": null,
    "lon": null,
    "average_delay": 0.4924
  },
  {
    "country": "USA",
    "city": "indianapolis",
    "lat": 39.768333,
    "lon": -86.15835,
    "average_delay": 0.4915
  },
  {
    "country": "USA",
    "city": "nashville",
    "lat": 36.162277,
    "lon": -86.774298,
    "average_delay": 0.4887
  },
  {
    "country": "THA",
    "city": "bangkok",
    "lat": 13.681877,
    "lon": 100.74858,
    "average_delay": 0.4883
  },
  {
    "country": "CAN",
    "city": "calgary",
    "lat": -43.555634,
    "lon": 172.514206,
    "average_delay": 0.4871
  },
  {
    "country": "USA",
    "city": "charlotte",
    "lat": 35.227209,
    "lon": -80.843083,
    "average_delay": 0.4856
  },
  {
    "country": "AUT",
    "city": "innsbruck",
    "lat": 47.238429,
    "lon": 11.39078,
    "average_delay": 0.4846
  },
  {
    "country": "USA",
    "city": "baltimore",
    "lat": 39.290882,
    "lon": -76.610759,
    "average_delay": 0.484
  },
  {
    "country": "ITA",
    "city": "verona",
    "lat": 51.085126,
    "lon": 3.44833,
    "average_delay": 0.4814
  },
  {
    "country": "CAN",
    "city": "quebec",
    "lat": 45.513904,
    "lon": -73.634399,
    "average_delay": 0.4807
  },
  {
    "country": "POL",
    "city": "bielsko-biala",
    "lat": null,
    "lon": null,
    "average_delay": 0.48
  },
  {
    "country": "FRA",
    "city": "saint-etienne",
    "lat": null,
    "lon": null,
    "average_delay": 0.4764
  },
  {
    "country": "DEU",
    "city": "kiel",
    "lat": null,
    "lon": null,
    "average_delay": 0.4742
  },
  {
    "country": "POL",
    "city": "katowice-urban-area",
    "lat": null,
    "lon": null,
    "average_delay": 0.471
  },
  {
    "country": "FRA",
    "city": "dijon",
    "lat": null,
    "lon": null,
    "average_delay": 0.4696
  },
  {
    "country": "IND",
    "city": "pune",
    "lat": 17.769214,
    "lon": 77.094045,
    "average_delay": 0.4692
  },
  {
    "country": "USA",
    "city": "cincinnati",
    "lat": 39.101454,
    "lon": -84.51246,
    "average_delay": 0.4684
  },
  {
    "country": "NLD",
    "city": "eindhoven",
    "lat": null,
    "lon": null,
    "average_delay": 0.4677
  },
  {
    "country": "ZAF",
    "city": "pretoria",
    "lat": null,
    "lon": null,
    "average_delay": 0.4671
  },
  {
    "country": "FIN",
    "city": "turku",
    "lat": null,
    "lon": null,
    "average_delay": 0.4656
  },
  {
    "country": "USA",
    "city": "boise",
    "lat": 43.616616,
    "lon": -116.200886,
    "average_delay": 0.4653
  },
  {
    "country": "FRA",
    "city": "tours",
    "lat": 40.083814,
    "lon": -82.952742,
    "average_delay": 0.464
  },
  {
    "country": "DEU",
    "city": "bremen",
    "lat": null,
    "lon": null,
    "average_delay": 0.454
  },
  {
    "country": "AUT",
    "city": "salzburg",
    "lat": null,
    "lon": null,
    "average_delay": 0.4505
  },
  {
    "country": "NLD",
    "city": "nijmegen",
    "lat": null,
    "lon": null,
    "average_delay": 0.4472
  },
  {
    "country": "AUT",
    "city": "linz",
    "lat": null,
    "lon": null,
    "average_delay": 0.4449
  },
  {
    "country": "BEL",
    "city": "ghent",
    "lat": 51.069258,
    "lon": 3.696491,
    "average_delay": 0.443
  },
  {
    "country": "ESP",
    "city": "alicante",
    "lat": null,
    "lon": null,
    "average_delay": 0.442
  },
  {
    "country": "TUR",
    "city": "gaziantep",
    "lat": null,
    "lon": null,
    "average_delay": 0.4396
  },
  {
    "country": "NLD",
    "city": "den-bosch",
    "lat": null,
    "lon": null,
    "average_delay": 0.4395
  },
  {
    "country": "ITA",
    "city": "ravenna",
    "lat": null,
    "lon": null,
    "average_delay": 0.4388
  },
  {
    "country": "POL",
    "city": "bialystok",
    "lat": 53.097697,
    "lon": 23.232728,
    "average_delay": 0.4387
  },
  {
    "country": "BEL",
    "city": "bruges",
    "lat": 44.882082,
    "lon": -0.612568,
    "average_delay": 0.4379
  },
  {
    "country": "USA",
    "city": "baton-rouge",
    "lat": 30.449416,
    "lon": -91.186966,
    "average_delay": 0.4377
  },
  {
    "country": "GBR",
    "city": "middlesbrough",
    "lat": null,
    "lon": null,
    "average_delay": 0.4341
  },
  {
    "country": "ITA",
    "city": "cagliari",
    "lat": null,
    "lon": null,
    "average_delay": 0.4306
  },
  {
    "country": "ESP",
    "city": "pamplona",
    "lat": null,
    "lon": null,
    "average_delay": 0.4267
  },
  {
    "country": "USA",
    "city": "albuquerque",
    "lat": 35.084103,
    "lon": -106.650985,
    "average_delay": 0.4258
  },
  {
    "country": "ZAF",
    "city": "bloemfontein",
    "lat": null,
    "lon": null,
    "average_delay": 0.4185
  },
  {
    "country": "KWT",
    "city": "kuwait-city",
    "lat": 29.361217,
    "lon": 47.967563,
    "average_delay": 0.4128
  },
  {
    "country": "BEL",
    "city": "kortrijk",
    "lat": 50.792215,
    "lon": 3.166939,
    "average_delay": 0.4107
  },
  {
    "country": "USA",
    "city": "st-louis",
    "lat": 38.628028,
    "lon": -90.191015,
    "average_delay": 0.4101
  },
  {
    "country": "USA",
    "city": "grand-rapids",
    "lat": 42.963242,
    "lon": -85.667864,
    "average_delay": 0.4061
  },
  {
    "country": "USA",
    "city": "sacramento",
    "lat": 38.581061,
    "lon": -121.493895,
    "average_delay": 0.4052
  },
  {
    "country": "DEU",
    "city": "karlsruhe",
    "lat": null,
    "lon": null,
    "average_delay": 0.4036
  },
  {
    "country": "NLD",
    "city": "utrecht",
    "lat": null,
    "lon": null,
    "average_delay": 0.4008
  },
  {
    "country": "USA",
    "city": "new-haven",
    "lat": 41.308214,
    "lon": -72.925052,
    "average_delay": 0.3965
  },
  {
    "country": "USA",
    "city": "columbus",
    "lat": 39.96226,
    "lon": -83.000707,
    "average_delay": 0.3951
  },
  {
    "country": "ITA",
    "city": "padua",
    "lat": 45.558178,
    "lon": 11.814968,
    "average_delay": 0.3939
  },
  {
    "country": "NLD",
    "city": "breda",
    "lat": null,
    "lon": null,
    "average_delay": 0.3892
  },
  {
    "country": "ITA",
    "city": "brescia",
    "lat": null,
    "lon": null,
    "average_delay": 0.3852
  },
  {
    "country": "USA",
    "city": "pittsburgh",
    "lat": 40.441694,
    "lon": -79.990086,
    "average_delay": 0.3836
  },
  {
    "country": "NOR",
    "city": "trondheim",
    "lat": 63.43443,
    "lon": 10.399998,
    "average_delay": 0.382
  },
  {
    "country": "PRT",
    "city": "coimbra",
    "lat": 41.17379,
    "lon": -8.61155,
    "average_delay": 0.3797
  },
  {
    "country": "NLD",
    "city": "amersfoort",
    "lat": null,
    "lon": null,
    "average_delay": 0.3775
  },
  {
    "country": "ESP",
    "city": "cordoba",
    "lat": 8.744414,
    "lon": -75.879779,
    "average_delay": 0.3702
  },
  {
    "country": "USA",
    "city": "dallas-fort-worth",
    "lat": 32.737233,
    "lon": -97.23257,
    "average_delay": 0.3678
  },
  {
    "country": "QAT",
    "city": "doha",
    "lat": 25.253557,
    "lon": 51.535061,
    "average_delay": 0.3653
  },
  {
    "country": "USA",
    "city": "providence",
    "lat": 41.823989,
    "lon": -71.412834,
    "average_delay": 0.3646
  },
  {
    "country": "USA",
    "city": "houston",
    "lat": 29.758938,
    "lon": -95.367697,
    "average_delay": 0.3627
  },
  {
    "country": "POL",
    "city": "lublin",
    "lat": 51.231665,
    "lon": 22.605835,
    "average_delay": 0.362
  },
  {
    "country": "NLD",
    "city": "tilburg",
    "lat": null,
    "lon": null,
    "average_delay": 0.3612
  },
  {
    "country": "BRA",
    "city": "belo-horizonte",
    "lat": null,
    "lon": null,
    "average_delay": 0.3608
  },
  {
    "country": "AUS",
    "city": "newcastle",
    "lat": null,
    "lon": null,
    "average_delay": 0.3571
  },
  {
    "country": "USA",
    "city": "mcallen",
    "lat": 26.204114,
    "lon": -98.23006,
    "average_delay": 0.3569
  },
  {
    "country": "USA",
    "city": "denver",
    "lat": 39.739236,
    "lon": -104.984862,
    "average_delay": 0.355
  },
  {
    "country": "USA",
    "city": "detroit",
    "lat": 42.331551,
    "lon": -83.04664,
    "average_delay": 0.3489
  },
  {
    "country": "AUS",
    "city": "wollongong",
    "lat": null,
    "lon": null,
    "average_delay": 0.3481
  },
  {
    "country": "USA",
    "city": "salt-lake-city",
    "lat": 40.75962,
    "lon": -111.886797,
    "average_delay": 0.3469
  },
  {
    "country": "FIN",
    "city": "helsinki",
    "lat": 60.183993,
    "lon": 24.958987,
    "average_delay": 0.3464
  },
  {
    "country": "NZL",
    "city": "tauranga",
    "lat": -37.661545,
    "lon": 176.190436,
    "average_delay": 0.3456
  },
  {
    "country": "ESP",
    "city": "bilbao",
    "lat": null,
    "lon": null,
    "average_delay": 0.3421
  },
  {
    "country": "ESP",
    "city": "cartagena",
    "lat": null,
    "lon": null,
    "average_delay": 0.3381
  },
  {
    "country": "USA",
    "city": "phoenix",
    "lat": 33.448437,
    "lon": -112.074141,
    "average_delay": 0.3369
  },
  {
    "country": "USA",
    "city": "minneapolis",
    "lat": 44.9773,
    "lon": -93.265469,
    "average_delay": 0.3328
  },
  {
    "country": "USA",
    "city": "allentown",
    "lat": 40.602206,
    "lon": -75.471279,
    "average_delay": 0.3319
  },
  {
    "country": "USA",
    "city": "jacksonville",
    "lat": 30.332184,
    "lon": -81.655651,
    "average_delay": 0.3314
  },
  {
    "country": "BEL",
    "city": "mons",
    "lat": 50.426572,
    "lon": 3.944992,
    "average_delay": 0.3293
  },
  {
    "country": "USA",
    "city": "columbia",
    "lat": 34.000754,
    "lon": -81.035231,
    "average_delay": 0.3285
  },
  {
    "country": "FIN",
    "city": "tampere",
    "lat": null,
    "lon": null,
    "average_delay": 0.3206
  },
  {
    "country": "NOR",
    "city": "bergen",
    "lat": 60.38689,
    "lon": 5.295252,
    "average_delay": 0.3133
  },
  {
    "country": "FRA",
    "city": "avignon",
    "lat": 43.919015,
    "lon": 4.8558,
    "average_delay": 0.3097
  },
  {
    "country": "USA",
    "city": "birmingham",
    "lat": 33.520682,
    "lon": -86.802433,
    "average_delay": 0.3075
  },
  {
    "country": "USA",
    "city": "raleigh",
    "lat": 35.780398,
    "lon": -78.639099,
    "average_delay": 0.3061
  },
  {
    "country": "USA",
    "city": "milwaukee",
    "lat": 43.038648,
    "lon": -87.909075,
    "average_delay": 0.3051
  },
  {
    "country": "AUS",
    "city": "perth",
    "lat": null,
    "lon": null,
    "average_delay": 0.3039
  },
  {
    "country": "USA",
    "city": "fresno",
    "lat": 36.739442,
    "lon": -119.78483,
    "average_delay": 0.3025
  },
  {
    "country": "NZL",
    "city": "hamilton",
    "lat": null,
    "lon": null,
    "average_delay": 0.2989
  },
  {
    "country": "USA",
    "city": "tucson",
    "lat": 32.222876,
    "lon": -110.974847,
    "average_delay": 0.2979
  },
  {
    "country": "NLD",
    "city": "zwolle",
    "lat": null,
    "lon": null,
    "average_delay": 0.2967
  },
  {
    "country": "ITA",
    "city": "modena",
    "lat": 44.332056,
    "lon": 10.830704,
    "average_delay": 0.2966
  },
  {
    "country": "USA",
    "city": "san-antonio",
    "lat": 29.4246,
    "lon": -98.495141,
    "average_delay": 0.2962
  },
  {
    "country": "USA",
    "city": "worcester",
    "lat": 42.262562,
    "lon": -71.801888,
    "average_delay": 0.2948
  },
  {
    "country": "SWE",
    "city": "malmo",
    "lat": null,
    "lon": null,
    "average_delay": 0.2907
  },
  {
    "country": "JPN",
    "city": "nagoya",
    "lat": 35.185105,
    "lon": 136.899844,
    "average_delay": 0.2813
  },
  {
    "country": "CZE",
    "city": "ostrava",
    "lat": null,
    "lon": null,
    "average_delay": 0.2807
  },
  {
    "country": "USA",
    "city": "virginia-beach",
    "lat": 36.849658,
    "lon": -75.976075,
    "average_delay": 0.2775
  },
  {
    "country": "NLD",
    "city": "leiden",
    "lat": null,
    "lon": null,
    "average_delay": 0.2734
  },
  {
    "country": "USA",
    "city": "richmond",
    "lat": 37.538509,
    "lon": -77.43428,
    "average_delay": 0.2687
  },
  {
    "country": "USA",
    "city": "cleveland",
    "lat": 41.499657,
    "lon": -81.693677,
    "average_delay": 0.2655
  },
  {
    "country": "USA",
    "city": "albany",
    "lat": 42.651167,
    "lon": -73.754968,
    "average_delay": 0.2641
  },
  {
    "country": "USA",
    "city": "kansas-city",
    "lat": 39.100105,
    "lon": -94.578142,
    "average_delay": 0.2614
  },
  {
    "country": "USA",
    "city": "riverside",
    "lat": 33.982495,
    "lon": -117.374238,
    "average_delay": 0.2611
  },
  {
    "country": "BEL",
    "city": "charleroi",
    "lat": 50.432002,
    "lon": 4.513454,
    "average_delay": 0.26
  },
  {
    "country": "ARG",
    "city": "buenos-aires",
    "lat": -34.470874,
    "lon": -58.654412,
    "average_delay": 0.2592
  },
  {
    "country": "USA",
    "city": "rochester",
    "lat": 43.157285,
    "lon": -77.615214,
    "average_delay": 0.2557
  },
  {
    "country": "USA",
    "city": "philadelphia",
    "lat": 39.952724,
    "lon": -75.163526,
    "average_delay": 0.2555
  },
  {
    "country": "MYS",
    "city": "kuala-lumpur",
    "lat": null,
    "lon": null,
    "average_delay": 0.2539
  },
  {
    "country": "USA",
    "city": "hartford",
    "lat": 41.764582,
    "lon": -72.690855,
    "average_delay": 0.2537
  },
  {
    "country": "DNK",
    "city": "odense",
    "lat": null,
    "lon": null,
    "average_delay": 0.2514
  },
  {
    "country": "ITA",
    "city": "taranto",
    "lat": null,
    "lon": null,
    "average_delay": 0.2513
  },
  {
    "country": "USA",
    "city": "dayton",
    "lat": 39.77944,
    "lon": -84.199196,
    "average_delay": 0.2508
  },
  {
    "country": "TUR",
    "city": "kayseri",
    "lat": 38.488861,
    "lon": 36.268323,
    "average_delay": 0.2441
  },
  {
    "country": "BRA",
    "city": "rio-de-janeiro",
    "lat": -22.519528,
    "lon": -42.978569,
    "average_delay": 0.2403
  },
  {
    "country": "URY",
    "city": "montevideo",
    "lat": null,
    "lon": null,
    "average_delay": 0.2385
  },
  {
    "country": "SWE",
    "city": "gothenburg",
    "lat": null,
    "lon": null,
    "average_delay": 0.2353
  },
  {
    "country": "FRA",
    "city": "toulon",
    "lat": 43.119865,
    "lon": 6.136814,
    "average_delay": 0.2334
  },
  {
    "country": "USA",
    "city": "san-diego",
    "lat": 32.71742,
    "lon": -117.162772,
    "average_delay": 0.229
  },
  {
    "country": "ESP",
    "city": "cadiz",
    "lat": null,
    "lon": null,
    "average_delay": 0.2249
  },
  {
    "country": "USA",
    "city": "louisville",
    "lat": 38.254238,
    "lon": -85.759407,
    "average_delay": 0.2227
  },
  {
    "country": "NLD",
    "city": "groningen",
    "lat": null,
    "lon": null,
    "average_delay": 0.2094
  },
  {
    "country": "SAU",
    "city": "dammam",
    "lat": 24.960249,
    "lon": 46.930187,
    "average_delay": 0.2071
  },
  {
    "country": "USA",
    "city": "knoxville",
    "lat": 35.960395,
    "lon": -83.921026,
    "average_delay": 0.2037
  },
  {
    "country": "ARE",
    "city": "fujairah",
    "lat": null,
    "lon": null,
    "average_delay": 0.1938
  },
  {
    "country": "USA",
    "city": "portland",
    "lat": 45.520247,
    "lon": -122.674194,
    "average_delay": 0.1904
  },
  {
    "country": "USA",
    "city": "colorado-springs",
    "lat": 38.833958,
    "lon": -104.825348,
    "average_delay": 0.1892
  },
  {
    "country": "USA",
    "city": "omaha-council-bluffs",
    "lat": 41.217969,
    "lon": -95.827925,
    "average_delay": 0.187
  },
  {
    "country": "CZE",
    "city": "brno",
    "lat": null,
    "lon": null,
    "average_delay": 0.1788
  },
  {
    "country": "NOR",
    "city": "stavanger",
    "lat": null,
    "lon": null,
    "average_delay": 0.1748
  },
  {
    "country": "JPN",
    "city": "kobe",
    "lat": 34.693238,
    "lon": 135.194376,
    "average_delay": 0.1673
  },
  {
    "country": "USA",
    "city": "buffalo",
    "lat": 42.886717,
    "lon": -78.878392,
    "average_delay": 0.1569
  },
  {
    "country": "ITA",
    "city": "pescara",
    "lat": null,
    "lon": null,
    "average_delay": 0.1558
  },
  {
    "country": "USA",
    "city": "oxnard-thousand-oaks-ventura",
    "lat": null,
    "lon": null,
    "average_delay": 0.1516
  },
  {
    "country": "ARE",
    "city": "al-ain",
    "lat": null,
    "lon": null,
    "average_delay": 0.1503
  },
  {
    "country": "NLD",
    "city": "apeldoorn",
    "lat": null,
    "lon": null,
    "average_delay": 0.1494
  },
  {
    "country": "ARE",
    "city": "ras-al-khaimah",
    "lat": null,
    "lon": null,
    "average_delay": 0.1472
  },
  {
    "country": "ESP",
    "city": "san-sebastian",
    "lat": null,
    "lon": null,
    "average_delay": 0.1456
  },
  {
    "country": "USA",
    "city": "syracuse",
    "lat": 43.048122,
    "lon": -76.147424,
    "average_delay": 0.144
  },
  {
    "country": "USA",
    "city": "akron",
    "lat": 41.083064,
    "lon": -81.518485,
    "average_delay": 0.1423
  },
  {
    "country": "USA",
    "city": "tulsa",
    "lat": 36.156312,
    "lon": -95.992752,
    "average_delay": 0.1329
  },
  {
    "country": "ARE",
    "city": "abu-dhabi",
    "lat": null,
    "lon": null,
    "average_delay": 0.1312
  },
  {
    "country": "USA",
    "city": "bakersfield",
    "lat": 35.373871,
    "lon": -119.019463,
    "average_delay": 0.1303
  },
  {
    "country": "USA",
    "city": "winston-salem",
    "lat": 36.099813,
    "lon": -80.244052,
    "average_delay": 0.1172
  },
  {
    "country": "BRA",
    "city": "brasilia",
    "lat": -12.079481,
    "lon": -45.009705,
    "average_delay": 0.1108
  },
  {
    "country": "USA",
    "city": "little-rock",
    "lat": 34.746507,
    "lon": -92.289627,
    "average_delay": 0.1021
  },
  {
    "country": "AUS",
    "city": "canberra",
    "lat": null,
    "lon": null,
    "average_delay": 0.1002
  },
  {
    "country": "BRA",
    "city": "porto-alegre",
    "lat": -15.831318,
    "lon": -47.91118,
    "average_delay": 0.0648
  },
  {
    "country": "USA",
    "city": "greensboro-high-point",
    "lat": 35.986981,
    "lon": -79.968973,
    "average_delay": 0.0582
  },
  {
    "country": "BRA",
    "city": "salvador",
    "lat": 40.443705,
    "lon": -3.638119,
    "average_delay": 0.0293
  },
  {
    "country": "BRA",
    "city": "fortaleza",
    "lat": null,
    "lon": null,
    "average_delay": 0.0196
  },
  {
    "country": "USA",
    "city": "oklahoma-city",
    "lat": 35.472989,
    "lon": -97.517054,
    "average_delay": 0.0087
  },
  {
    "country": "BRA",
    "city": "curitiba",
    "lat": null,
    "lon": null,
    "average_delay": -0.0004
  },
  {
    "country": "NLD",
    "city": "almere",
    "lat": null,
    "lon": null,
    "average_delay": -0.0228
  },
  {
    "country": "BRA",
    "city": "recife",
    "lat": null,
    "lon": null,
    "average_delay": -0.0486
  },
  {
    "country": "HKG",
    "city": "hong-kong",
    "lat": 22.312599,
    "lon": 113.9173,
    "average_delay": -0.0643
  },
  {
    "country": "USA",
    "city": "memphis",
    "lat": 35.146025,
    "lon": -90.051764,
    "average_delay": -0.0705
  },
  {
    "country": "SGP",
    "city": "singapore",
    "lat": 1.31949,
    "lon": 103.700195,
    "average_delay": -0.1286
  },
  {
    "country": "SAU",
    "city": "medina",
    "lat": -23.512848,
    "lon": -46.347253,
    "average_delay": -0.178
  },
  {
    "country": "EGY",
    "city": "cairo",
    "lat": 30.002707,
    "lon": 31.485226,
    "average_delay": -0.1963
  },
  {
    "country": "USA",
    "city": "el-paso",
    "lat": 31.760116,
    "lon": -106.48704,
    "average_delay": -0.2655
  },
  {
    "country": "SAU",
    "city": "mecca",
    "lat": -23.548615,
    "lon": -46.934261,
    "average_delay": -0.2727
  }
]